[
        {
            "name": "Проспект Ветеранов",
            "longitude": "59.84188",
            "latitude": "30.251543"
        },
        {
            "name": "Ленинский проспект",
            "longitude": "59.851677",
            "latitude": "30.268279"
        },
        {
            "name": "Автово",
            "longitude": "59.867369",
            "latitude": "30.261345"
        },
        {
            "name": "Кировский завод",
            "longitude": "59.879726",
            "latitude": "30.261908"
        },
        {
            "name": "Нарвская",
            "longitude": "59.901169",
            "latitude": "30.274676"
        },
        {
            "name": "Балтийская",
            "longitude": "59.907245",
            "latitude": "30.299217"
        },
        {
            "name": "Технологический институт-1",
            "longitude": "59.916799",
            "latitude": "30.318967"
        },
        {
            "name": "Пушкинская",
            "longitude": "59.920757",
            "latitude": "30.329641"
        },
        {
            "name": "Владимирская",
            "longitude": "59.927467",
            "latitude": "30.347875"
        },
        {
            "name": "Площадь Восстания",
            "longitude": "59.931483",
            "latitude": "30.36036"
        },
        {
            "name": "Чернышевская",
            "longitude": "59.944558",
            "latitude": "30.359754"
        },
        {
            "name": "Площадь Ленина",
            "longitude": "59.955725",
            "latitude": "30.355957"
        },
        {
            "name": "Выборгская",
            "longitude": "59.97111",
            "latitude": "30.347553"
        },
        {
            "name": "Лесная",
            "longitude": "59.98477",
            "latitude": "30.344201"
        },
        {
            "name": "Площадь Мужества",
            "longitude": "59.999655",
            "latitude": "30.366595"
        },
        {
            "name": "Политехническая",
            "longitude": "60.008926",
            "latitude": "30.370952"
        },
        {
            "name": "Академическая",
            "longitude": "60.012763",
            "latitude": "30.395706"
        },
        {
            "name": "Гражданский проспект",
            "longitude": "60.03481",
            "latitude": "30.418087"
        },
        {
            "name": "Девяткино",
            "longitude": "60.049799",
            "latitude": "30.442248"
        },
        {
            "name": "Купчино",
            "longitude": "59.829887",
            "latitude": "30.375399"
        },
        {
            "name": "Звёздная",
            "longitude": "59.833228",
            "latitude": "30.349616"
        },
        {
            "name": "Московская",
            "longitude": "59.852192",
            "latitude": "30.322206"
        },
        {
            "name": "Парк Победы",
            "longitude": "59.86659",
            "latitude": "30.321712"
        },
        {
            "name": "Электросила",
            "longitude": "59.879425",
            "latitude": "30.318658"
        },
        {
            "name": "Московские Ворота",
            "longitude": "59.891924",
            "latitude": "30.317751"
        },
        {
            "name": "Фрунзенская",
            "longitude": "59.906155",
            "latitude": "30.317509"
        },
        {
            "name": "Технологический институт-2",
            "longitude": "59.916622",
            "latitude": "30.318505"
        },
        {
            "name": "Сенная площадь",
            "longitude": "59.927090",
            "latitude": "30.320378"
        },
        {
            "name": "Невский проспект",
            "longitude": "59.935601",
            "latitude": "30.327134"
        },
        {
            "name": "Горьковская",
            "longitude": "59.956323",
            "latitude": "30.318724"
        },
        {
            "name": "Петроградская",
            "longitude": "59.966465",
            "latitude": "30.311432"
        },
        {
            "name": "Чёрная речка",
            "longitude": "59.985574",
            "latitude": "30.300792"
        },
        {
            "name": "Пионерская",
            "longitude": "60.002576",
            "latitude": "30.296791"
        },
        {
            "name": "Удельная",
            "longitude": "60.016707",
            "latitude": "30.315421"
        },
        {
            "name": "Озерки",
            "longitude": "60.037141",
            "latitude": "30.321529"
        },
        {
            "name": "Проспект Просвещения",
            "longitude": "60.051416",
            "latitude": "30.332632"
        },
        {
            "name": "Парнас",
            "longitude": "60.06715",
            "latitude": "30.334128"
        },
        {
            "name": "Приморская",
            "longitude": "59.948545",
            "latitude": "30.234526"
        },
        {
            "name": "Василеостровская",
            "longitude": "59.942927",
            "latitude": "30.278159"
        },
        {
            "name": "Гостиный Двор",
            "longitude": "59.934049",
            "latitude": "30.333772"
        },
        {
            "name": "Маяковская",
            "longitude": "59.931612",
            "latitude": "30.35491"
        },
        {
            "name": "Площадь Александра Невского-1",
            "longitude": "59.924314",
            "latitude": "30.385102"
        },
        {
            "name": "Елизаровская",
            "longitude": "59.896705",
            "latitude": "30.423637"
        },
        {
            "name": "Ломоносовская",
            "longitude": "59.877433",
            "latitude": "30.441951"
        },
        {
            "name": "Пролетарская",
            "longitude": "59.865275",
            "latitude": "30.47026"
        },
        {
            "name": "Обухово",
            "longitude": "59.848795",
            "latitude": "30.457805"
        },
        {
            "name": "Рыбацкое",
            "longitude": "59.830943",
            "latitude": "30.500455"
        },
        {
            "name": "Улица Дыбенко",
            "longitude": "59.907573",
            "latitude": "30.483292"
        },
        {
            "name": "Проспект Большевиков",
            "longitude": "59.919819",
            "latitude": "30.466908"
        },
        {
            "name": "Ладожская",
            "longitude": "59.93244",
            "latitude": "30.439474"
        },
        {
            "name": "Новочеркасская",
            "longitude": "59.92933",
            "latitude": "30.412918"
        },
        {
            "name": "Площадь Александра Невского-2",
            "longitude": "59.92365",
            "latitude": "30.383471"
        },
        {
            "name": "Лиговский проспект",
            "longitude": "59.920747",
            "latitude": "30.355245"
        },
        {
            "name": "Достоевская",
            "longitude": "59.928072",
            "latitude": "30.345746"
        },
        {
            "name": "Спасская",
            "longitude": "59.926839",
            "latitude": "30.319752"
        },
        {
            "name": "Международная",
            "longitude": "59.869966",
            "latitude": "30.379045"
        },
        {
            "name": "Бухарестская",
            "longitude": "59.883681",
            "latitude": "30.369673"
        },
        {
            "name": "Волковская",
            "longitude": "59.896265",
            "latitude": "30.35686"
        },
        {
            "name": "Обводный канал",
            "longitude": "59.914697",
            "latitude": "30.349361"
        },
        {
            "name": "Звенигородская",
            "longitude": "59.922304",
            "latitude": "30.335784"
        },
        {
            "name": "Садовая",
            "longitude": "59.927008",
            "latitude": "30.317456"
        },
        {
            "name": "Адмиралтейская",
            "longitude": "59.935877",
            "latitude": "30.314886"
        },
        {
            "name": "Спортивная-1",
            "longitude": "59.952078",
            "latitude": "30.291312"
        },
        {
            "name": "Спортивная-2",
            "longitude": "59.950365",
            "latitude": "30.287356"
        },
        {
            "name": "Чкаловская",
            "longitude": "59.961035",
            "latitude": "30.291964"
        },
        {
            "name": "Крестовский остров",
            "longitude": "59.971838",
            "latitude": "30.259427"
        },
        {
            "name": "Старая Деревня",
            "longitude": "59.989228",
            "latitude": "30.255169"
        },
        {
            "name": "Комендантский проспект",
            "longitude": "60.008356",
            "latitude": "30.258915"
        },
        {
            "name": "Проспект Славы",
            "longitude": "59.85885",
            "latitude": "30.39102"
        },
        {
            "name": "Шушары",
            "longitude": "59.8200302",
            "latitude": "30.4325008"
        },
        {
            "name": "Дунайская",
            "longitude": "59.839863",
            "latitude": "30.410874"
        }
]