[{"n": 0, 
    "name": "Colors", 
    "image": "https://fenster.coffee/mapImages/photo_2021-08-27 12.10.32.jpeg", 
    "instagram": "https://www.instagram.com/colors.spb/", 
    "description": "Стильная кофейня с яркими деталями и самобытным интерьером, продуманным сытным меню и свежей выпечкой. Владельцы — выходцы из Mad Espresso Team, поэтому качество гарантировано!", 
    "tag": ["Декаф"], 
    "city": "Санкт-Петербург", 
    "street": "Ленина", 
    "building_number": " 27", 
    "longitude": 59.963389, "latitude": 30.302247, 
    "comment": "", "station": "Петроградская"},
{"n": 1, "name": "Aster", "image": "https://fenster.coffee/mapImages/photo_2021-08-11 20.28.58.jpeg", "instagram": "https://www.instagram.com/hello.aster/", "description": "Городское кафе на Маяковского с крутым кофе, свежим хлебом, вином и вкусной едой.", "tag": ["Шведская булочка"], "city": "Санкт-Петербург", "street": "Маяковского", "building_number": " 23/6", "longitude": 59.939685, "latitude": 30.355628, "comment": "", "station": "Маяковская"}, {"n": 2, "name": "Cookies", "image": "https://fenster.coffee/mapImages/2021-01-05 15.39.19.jpg", "instagram": "https://www.instagram.com/ilikebigcookiesandicannotlie/", "description": "Красивое окно, красивый интерьер, красивый район, уникальные печеньки на любой вкус и цвет в меню.", "tag": ["Поработать"], "city": "Санкт-Петербург", "street": "Моховая", "building_number": " 14", "longitude": 59.944455, "latitude": 30.345438, "comment": "", "station": "Чернышевская"}, {"n": 3, "name": "Avgvst ", "image": "https://fenster.coffee/mapImages/IMAGE 2020-09-24 15:56:52.jpg", "instagram": "https://www.instagram.com/avgvstcoffee/", "description": "Пространство яркое и интересное по планировке. В двух из трёх залов располагается ювелирный магазин, а в третьем, центральном зале, сама кофейня. Кофе хорош: тут и питерские обжарщики и европейские.⁣⁣", "tag": ["Поработать"], "city": "Санкт-Петербург", "street": "Рубиншнейна", "building_number": " 16", "longitude": 59.930764, "latitude": 30.345342, "comment": "", "station": "Достоевская"}, {"n": 4, "name": "Салют", "image": "https://salut.coffee/assets/image_about.jpeg", "instagram": "https://www.instagram.com/salut.coffee/", "description": "Необычный интерьер с миллионом винтажных мелочей, контактная стойка, сытная еда и большой выбор напитков на основе чая матти.", "tag": ["Шведская булочка", "Своё зерно"], "city": "Санкт-Петербург", "street": "Мира", "building_number": " 36", "longitude": 59.962815, "latitude": 30.328317, "comment": "", "station": "Горьковская"}, {"n": 5, "name": "Mad Espresso Team", "image": "https://fenster.coffee/mapImages/3.jpg", "instagram": "https://www.instagram.com/madespressoteam/", "description": "Флагманская кофейня Северо-Западной кофейной компании. Помимо кофе, тут очень вкусная еда!", "tag": ["Декаф", "Своё зерно"], "city": "Санкт-Петербург", "street": "2-я Советская", "building_number": " 27/2", "longitude": 59.930247, "latitude": 30.372384, "comment": "", "station": "Площадь Восстания"}, {"n": 6, "name": "Больше кофе", "image": "https://fenster.coffee/mapImages/4.jpg", "instagram": "https://www.instagram.com/bolshe_coffee/", "description": "Культовая кофейня в гроте, уютная посадка на улице и дешёвый качественный кофе.", "tag": ["Своё зерно"], "city": "Санкт-Петербург", "street": "Александровский парк", "building_number": " 3Г", "longitude": 59.954483, "latitude": 30.320627, "comment": "", "station": "Горьковская"}, {"n": 7, "name": "Bolshecoffee roasters", "image": "https://fenster.coffee/mapImages/6.jpg", "instagram": "https://www.instagram.com/bolshecoffeeroasters/", "description": "Хорошая кофейня с гигантским окном и берлинским интерьером. По выходным тут проходят каппинги и воркшопы.", "tag": ["Своё зерно"], "city": "Санкт-Петербург", "street": "Марата", "building_number": " 22-24", "longitude": 59.928, "latitude": 30.353741, "comment": "", "station": "Маяковская"}, {"n": 8, "name": "Займёмся кофе", "image": "https://fenster.coffee/mapImages/7.jpg", "instagram": "https://www.instagram.com/zaymemsya_kofe/", "description": "Домашние десерты, контактная стойка, разные бранчи по выходным.", "tag": ["Поработать"], "city": "Санкт-Петербург", "street": "Большая Пушкарская", "building_number": " 28", "longitude": 59.959043, "latitude": 30.303669, "comment": "", "station": "Чкаловская"}, {"n": 9, "name": "Gaslight Cafe", "comment": "Вход через арку.", "image": "https://fenster.coffee/mapImages/75239240_185367812643866_3083138873975920508_n.jpg", "instagram": "https://www.instagram.com/gaslight.cafe/", "description": "Светлая и уютная кофейня во дворе Биржевого переулка. Постоянно заваривают кофе от разных питерских обжарщиков.", "tag": [], "city": "Санкт-Петербург", "street": "Биржевой переулок", "building_number": " 4(2)", "longitude": 59.944957, "latitude": 30.29262, "station": "Спортивная-1"}, {"n": 10, "name": "Кофе на кухне", "image": "https://fenster.coffee/mapImages/73114018_147645203174038_5365637899633892227_n.jpg", "instagram": "https://www.instagram.com/bolshe_coffee/", "description": "Культовая кофейня с красивым видом, если вы успели занять лакомые места у окна. Тут постоянная очередь, но если вы за фильтром - наливайте и оплачивайте самостоятельно на специальном терминале.", "tag": [], "city": "Санкт-Петербург", "street": "наб. реки Фонтанки", "building_number": " 17", "longitude": 59.935858, "latitude": 30.343141, "comment": "", "station": "Достоевская"}, {"n": 11, "name": "Обычные люди", "image": "https://fenster.coffee/mapImages/56180277_284823789117811_4985581920345813152_n.jpg", "instagram": "https://www.instagram.com/everyday_people__/", "description": "Проект Больше кофе, только с вином и винтажным тёмным интерьером.", "tag": ["Своё зерно"], "city": "Санкт-Петербург", "street": "Рыбацкая", "building_number": " 4", "longitude": 59.958207, "latitude": 30.297632, "comment": "", "station": "Чкаловская"}, {"n": 12, "name": "Пенка", "image": "https://fenster.coffee/mapImages/90352432_139026577524596_5145627451794012745_n.jpg", "instagram": "https://www.instagram.com/penka_home/", "description": "Новая кофейня с веганскими десертами и тёплым минималистичным интерьером.", "tag": ["Веган"], "city": "Санкт-Петербург", "street": "Озерной пер.", "building_number": " 2-4", "longitude": 59.93813, "latitude": 30.361583, "comment": "", "station": "Площадь Восстания"}, {"n": 13, "name": "Civil", "image": "https://fenster.coffee/mapImages/94064590_568631903771617_4260521537771936638_n.jpg", "instagram": "https://www.instagram.com/civil.coffeebar", "description": "Завтраки, кофе и вино. Здесь очень хорошо и комфортно.", "tag": ["Завтраки"], "city": "Санкт-Петербург", "street": "Большой просп. Петроградской стороны", "building_number": " 71", "longitude": 59.964727, "latitude": 30.310598, "comment": "", "station": "Петроградская"}, {"n": 14, "name": "Nothing Fancy", "image": "https://fenster.coffee/mapImages/242004961_541736557051697_1353797287001026574_n.jpg", "instagram": "https://www.instagram.com/nothingfancy.project/", "description": "Проект с модной и полезной свежей едой, боулами, фрешами и кофе. Концепция и трендовый интерьер привлекли немереное количество гостей в первые дни после открытия, даже несмотря на высокие цены.", "tag": ["Веган"], "city": "Санкт-Петербург", "street": "Социалистическая", "building_number": " 21", "longitude": 59.920163, "latitude": 30.346132, "comment": "", "station": "Достоевская"}, {"n": 15, "name": "Слой", "image": "https://fenster.coffee/mapImages/265722496_2720270688275197_4018738845414079195_n.jpg", "instagram": "https://www.instagram.com/sloy.bakery/?hl=ru", "description": "Ещё одна точка современной сети пекарен с полноценной кухней и хорошим кофе!", "tag": ["Шведская булочка"], "city": "Санкт-Петербург", "street": "Московский проспект", "building_number": " 49", "longitude": 59.911516, "latitude": 30.317943, "comment": "", "station": "Технологический институт-2"}, {"n": 16, "name": "Atom Heart", "image": "https://fenster.coffee/mapImages/IMG_6153.JPG", "instagram": "https://instagram.com/atomheart.coffee?utm_medium=copy_link", "description": "Кофейня с оформлением в стиле 60-х годов с сэндвичами и десертами. P.S.: Не забудьте заглянуть в туалет — он заслуживает вашего внимания!", "tag": "", "city": "Санкт-Петербург", "street": "проспект Добролюбова", "building_number": " 5/1", "longitude": 59.950004, "latitude": 30.303448, "comment": "", "station": "Спортивная-1"}, {"n": 17, "name": "Camper Coffee Pop-up", "image": "https://fenster.coffee/mapImages/photo_2021-12-14 17.16.37.jpeg", "instagram": "https://www.instagram.com/camper.coffeevan/", "description": "Временная большая кофейня в пространстве для мероприятий в Никольских рядах.", "tag": "", "city": "Санкт-Петербург", "street": "Садовая", "building_number": " 62", "longitude": 59.92094, "latitude": 30.301592, "comment": "", "station": "Балтийская"}, {"n": 18, "name": "Molnia", "image": "https://fenster.coffee/mapImages/264820311_863876777634022_6730765188021503427_n.jpg", "instagram": "https://www.instagram.com/molnia_coffee/?hl=ru", "description": "Кофейный корнер в барбершопе Морж.", "tag": "", "city": "Санкт-Петербург", "street": "Малый проспект В.O.", "building_number": " 52", "longitude": 59.94272, "latitude": 30.261609, "comment": "", "station": "Василеостровская"}, {"n": 19, "name": "Характер кофе", "image": "https://fenster.coffee/mapImages/56197327_447564669353413_2374169417174127060_n.jpg", "instagram": "https://www.instagram.com/characterofcoffee/", "description": "Хороший кофе, вкусная еда, бюджетно, много студентов и фрилансеров, для которых тут все условия.", "tag": "", "city": "Санкт-Петербург", "street": "наб. реки Фонтанки", "building_number": " 109", "longitude": 59.922699, "latitude": 30.318842, "comment": "", "station": "Спасская"}, {"n": 20, "name": "Щегол", "image": "https://fenster.coffee/mapImages/103931087_134561538250073_382711252953593118_n.jpg", "instagram": "https://www.instagram.com/schegolcoffee/", "description": "Интерьер, сырники и чашки - супер!", "tag": "", "city": "Санкт-Петербург", "street": "Радищева", "building_number": " 38/20", "longitude": 59.941853, "latitude": 30.363398, "comment": "", "station": "Чернышевская"}, {"n": 21, "name": "YNGЯНГ", "image": "https://fenster.coffee/mapImages/81666221_1048771748795709_7680250627831374092_n.jpg", "instagram": "https://www.instagram.com/yngcoffee/", "description": "Кафе во дворе нового дома на Крестовском. Соседствуют с детским клубом и готовят кофе на мощном оборудовании и вкусном зерне от Больше кофе, каждое утро пекут свежий хлеб и делают десерты без глютена.", "tag": "1–место GoodCoffeeAwards 2019", "city": "Санкт-Петербург", "street": "Спортивная", "building_number": " 2", "longitude": 59.967447, "latitude": 30.269165, "comment": "", "station": "Крестовский остров"}, {"n": 22, "name": "Civil", "image": "https://fenster.coffee/mapImages/Цивил советская.jpg", "instagram": "https://www.instagram.com/civil.coffeebar", "description": "Завтраки, кофе и вино. Интерьер - топ!", "tag": "", "city": "Санкт-Петербург", "street": "8-я Советская", "building_number": " 4", "longitude": 59.938018, "latitude": 30.370414, "comment": "", "station": "Площадь Восстания"}, {"n": 23, "name": "Grán", "image": "https://fenster.coffee/mapImages/84595989_190208948734833_3963837015296305947_n.jpg", "instagram": "https://www.instagram.com/grancoffee/", "description": "Хороший кофе, вино и еда, а также стильное пространство, дизайнерская мебель и детали.", "tag": "", "city": "Санкт-Петербург", "street": "Гороховая", "building_number": " 46", "longitude": 59.926679, "latitude": 30.324995, "comment": "", "station": "Сенная площадь"}, {"n": 24, "name": "Limitless", "image": "https://fenster.coffee/mapImages/79578278_252646989037232_4820774725098382566_n.jpg", "instagram": "https://www.instagram.com/cafe.limitless/", "description": "Необычный интерьер, приятное пространство, красивый район.", "tag": "", "city": "Санкт-Петербург", "street": "Большой Казачий пер.", "building_number": " 4", "longitude": 59.923226, "latitude": 30.3265282, "comment": "", "station": "Пушкинская"}, {"n": 25, "name": "Ôpetit", "image": "https://fenster.coffee/mapImages/87420128_2659983557433444_6330041426974772079_n.jpg", "instagram": "https://www.instagram.com/o_petit/", "description": "Точно самые лучшие круасаны. Приятный интерьер и большой стол с розетками для работы.", "tag": "", "city": "Санкт-Петербург", "street": "Блохина", "building_number": " 23", "longitude": 59.952283, "latitude": 30.297367, "comment": "", "station": "Спортивная-1"}, {"n": 26, "name": "Парадная", "image": "https://fenster.coffee/mapImages/95246109_2647809025449786_4418552139894180790_n.jpg", "instagram": "https://www.instagram.com/coffeelosophy.spb/", "description": "Небольшая кофейня на канале Грибоедова с простым интерьером и ярким кофе. Перевоплощение Кофелософии.", "tag": "", "city": "Санкт-Петербург", "street": "наб. канала Грибоедова", "building_number": " 106", "longitude": 59.924262, "latitude": 30.304123, "comment": "", "station": "Садовая"}, {"n": 27, "name": "STIM", "image": "https://fenster.coffee/mapImages/106396530_294724101830974_8263930371652044280_n.jpg", "instagram": "https://www.instagram.com/stimcoffeehome/", "description": "В кофейне по-домашнему уютно и вкусные сырники.", "tag": "", "city": "Санкт-Петербург", "street": "Гражданская", "building_number": " 13-15", "longitude": 59.928145, "latitude": 30.312392, "comment": "", "station": "Садовая"}, {"n": 28, "name": "Фильтр", "comment": "вход с Медиков", "image": "https://fenster.coffee/mapImages/81997278_730236991110324_2224039946730699229_n.jpg", "instagram": "https://instagram.com/filterspb/", "description": "Неплохая кофейня, с минималистичным интерьером.", "tag": "", "city": "Санкт-Петербург", "street": "Аптекарский проспект", "building_number": " 18", "longitude": 59.97535, "latitude": 30.318249, "station": "Петроградская"}, {"n": 29, "name": "Фильтр", "comment": "Кудрово", "image": "https://fenster.coffee/mapImages/74658615_420972515496550_3751872654744965385_n.jpg", "instagram": "https://www.instagram.com/filterspb/", "description": "Неплохая кофейня, с минималистичным интерьером.", "tag": "", "city": "Санкт-Петербург", "street": "Ленинградская", "building_number": " 9/8", "longitude": 59.915124, "latitude": 30.519125, "station": "Улица Дыбенко"}, {"n": 30, "name": "Фильтр", "image": "https://fenster.coffee/mapImages/80723778_207870880225939_6876577096899388750_n.jpg", "instagram": "https://www.instagram.com/filterspb/", "description": "Неплохая кофейня, с минималистичным интерьером.", "tag": "", "city": "Санкт-Петербург", "street": "Московский просп.", "building_number": " 51", "longitude": 59.911344, "latitude": 30.317961, "comment": "", "station": "Фрунзенская"}, {"n": 31, "name": "Verle Garden", "image": "https://fenster.coffee/mapImages/18094959_292731437831519_3751853936798072832_n.jpg", "instagram": "https://www.instagram.com/verlegarden/", "description": "Много зелени и ультрафиолетовых ламп для неё. Маття, пиво и вкусный кофе собственной обжарки дополняют эту историю.", "tag": "", "city": "Санкт-Петербург", "street": "Каменноостровский просп.", "building_number": " 25", "longitude": 59.963498, "latitude": 30.31475, "comment": "", "station": "Петроградская"}, {"n": 32, "name": "Восход", "comment": "этаж 1", "image": "https://fenster.coffee/P5067973.jpg", "instagram": "https://www.instagram.com/voshod.coffee", "description": "Хорошее место с простым меню и вкусным кофе и маттей.", "tag": "", "city": "Санкт-Петербург", "street": "Малый просп. Васильевского острова", "building_number": " 2", "longitude": 59.948437, "latitude": 30.279742, "station": "Василеостровская"}, {"n": 33, "name": "Coffee3", "image": "https://fenster.coffee/mapImages/82498688_216210839540468_8515143322280489196_n.jpg", "instagram": "https://www.instagram.com/coffee3spb/", "description": "Большая двухэтажная кофейня с панорамными окнами на пятом этаже Ленполиграфмаша, кофейным производством, миллионом розеток и большим выбором еды.", "tag": "", "city": "Санкт-Петербург", "street": "просп. Медиков", "building_number": " 3", "longitude": 59.969674, "latitude": 30.31674, "comment": "", "station": "Петроградская"}, {"n": 34, "name": "Kafema", "image": "https://fenster.coffee/mapImages/97560749_240454747237476_406595442385539122_n.jpg", "instagram": "https://www.instagram.com/kafemaspb/", "description": "Магазин кофе и аксессуаров. Тут можно выпить отличнейшую альтернативу, не проходите мимо!", "tag": "", "city": "Санкт-Петербург", "street": "просп. Чернышевского", "building_number": " 3", "longitude": 59.948558, "latitude": 30.359166, "comment": "", "station": "Чернышевская"}, {"n": 35, "name": "Панорама", "image": "https://fenster.coffee/mapImages/83608914_187475142485708_4185907186014515326_n.jpg", "instagram": "https://www.instagram.com/panoramacafe.spb/", "description": "Небольшая двухярусная кофейня от Aurora coffee roasters с панорамным видом на Неву и Свердловскую набережную.", "tag": "", "city": "Санкт-Петербург", "street": "Свердловская наб.", "building_number": " 60", "longitude": 59.954505, "latitude": 30.408474, "comment": "", "station": "Новочеркасская"}, {"n": 36, "name": "Будем знакомы", "image": "https://fenster.coffee/mapImages/90440959_570864277192092_5253785434073557419_n.jpg", "instagram": "https://www.instagram.com/budem.znakomy.coffee/", "description": "Семейная кофейня на Балтийской.", "tag": "", "city": "Санкт-Петербург", "street": "Рижский просп.", "building_number": " 2", "longitude": 59.913628, "latitude": 30.297268, "comment": "", "station": "Балтийская"}, {"n": 37, "name": "Питчер", "image": "https://fenster.coffee/mapImages/38097329_219776198699759_7227932391501725696_n.jpg", "instagram": "https://www.instagram.com/pitcherbar/", "description": "Небольшой павильон рядом со студенческим городком.", "tag": "", "city": "Санкт-Петербург", "street": "Бассейная", "building_number": " 12", "longitude": 59.866243, "latitude": 30.314913, "comment": "", "station": "Парк Победы"}, {"n": 38, "name": "Забыли сахар", "image": "https://fenster.coffee/mapImages/60273350_1156453987896261_6311363352895407612_n.jpg", "instagram": "https://www.instagram.com/zabylisahar/", "description": "Оригинальные десерты с низким содержанием сахара, милый интерьер с ватными облаками и розовым цветом.", "tag": "", "city": "Санкт-Петербург", "street": "Кушелевская", "building_number": " 3/7", "longitude": 59.987465, "latitude": 30.371761, "comment": "", "station": "Площадь Мужества"}, {"n": 39, "name": "Фильтр", "image": "https://fenster.coffee/mapImages/72371779_393149981574272_7274009672204395507_n.jpg", "instagram": "https://www.instagram.com/filterspb/", "description": "Кофейня с чистым минималистичным интерьером, хорошим кофе и скромным выбором десертов.", "tag": "", "city": "Санкт-Петербург", "street": "Маяковского", "building_number": " 16", "longitude": 59.936346, "latitude": 30.354908, "comment": "", "station": "Маяковская"}, {"n": 40, "name": "Департамент кофе", "image": "https://fenster.coffee/mapImages/depart.jpg", "instagram": "https://www.instagram.com/coffee_department/", "description": "Кофейня хороших питерских обжарщиков, но интерьер очень-очень странный.", "tag": "", "city": "Санкт-Петербург", "street": "Невский просп.", "building_number": " 150К", "longitude": 59.928605, "latitude": 30.373771, "comment": "", "station": "Площадь Александра Невского-2"}, {"n": 41, "name": "Питчер", "image": "https://sun9-19.userapi.com/c855436/v855436108/1074a0/dcCHXpYb8-A.jpg", "instagram": "https://www.instagram.com/pitcherbar/", "description": "Небольшая кофейня в хорошем месте.", "tag": "", "city": "Санкт-Петербург", "street": "Марата", "building_number": " 2/73-75", "longitude": 59.931386, "latitude": 30.3558, "comment": "", "station": "Маяковская"}, {"n": 42, "name": "Black Coffee Co.", "image": "https://fenster.coffee/mapImages/88281179_148260293310623_3443866649607070631_n.jpg", "instagram": "https://www.instagram.com/blackcoffeeco.ru/", "description": "Хорошая кофейня в районе Австрийской площади.", "tag": "", "city": "Санкт-Петербург", "street": "Каменноостровский просп.", "building_number": " 13/2", "longitude": 59.95962, "latitude": 30.318305, "comment": "", "station": "Горьковская"}, {"n": 43, "name": "MNTN Coffee", "image": "https://fenster.coffee/mapImages/89410945_3417702231577974_3236907147519750908_n.jpg", "instagram": "https://www.instagram.com/mntncoffee/", "description": "Уютная кофейня с видом на залив.", "tag": "", "city": "Санкт-Петербург", "street": "Кожевенная линия", "building_number": " 40Б", "longitude": 59.924815, "latitude": 30.23923, "comment": "", "station": "Приморская"}, {"n": 44, "name": "Море внутри тебя", "image": "https://fenster.coffee/mapImages/81938253_561993514385741_7216463677822986200_n.jpg", "instagram": "https://www.instagram.com/more_insideyou/", "description": "Стильный басик с кофе и маттей. А что ещё есть в нашем районе?", "tag": "", "city": "Санкт-Петербург", "street": "бульвар Менделеева", "building_number": " 4а", "longitude": 60.052306, "latitude": 30.43458, "comment": "", "station": "Девяткино"}, {"n": 45, "name": "Рид", "image": "https://salut.coffee/rid.jpg", "instagram": "https://www.instagram.com/rid_coffee/", "description": "Ребята открылись недавно, но все время совершенствуются)", "tag": "", "city": "Санкт-Петербург", "street": "Декабристов", "building_number": " 39", "longitude": 59.924702, "latitude": 30.28748, "comment": "", "station": "Спортивная-2"}, {"n": 46, "name": "Qobra", "image": "https://fenster.coffee/mapImages/64669464_155143258997875_3668212310661802973_n.jpg", "instagram": "https://instagram.com/qobracoffee?igshid=1gatoopjftlgm", "description": "Кофейный корнер в цветочком магазине.", "tag": "", "city": "Санкт-Петербург", "street": "Адмирала Коновалова", "building_number": " 2-4", "longitude": 59.84996, "latitude": 30.150182, "comment": "", "station": "Проспект Ветеранов"}, {"n": 47, "name": "Знакомьтесь, Джо", "image": "https://instagram.fhel4-1.fna.fbcdn.net/vp/c57a549a367d0f5cb83e08c361be8ac8/5E18E0BA/t51.2885-15/e35/s1080x1080/66450358_416989452241902_8754848017530088972_n.jpg?_nc_ht=instagram.fhel4-1.fna.fbcdn.net&_nc_cat=106", "instagram": "https://www.instagram.com/bolshe_coffee/", "description": "Уютная кофейня от Больше кофе в книжном магазине.", "tag": "", "city": "Санкт-Петербург", "street": "Литейный просп.", "building_number": " 57", "longitude": 59.934341, "latitude": 30.347842, "comment": "", "station": "Владимирская"}, {"n": 48, "name": "Addict", "image": "https://fenster.coffee/addict.jpg", "instagram": "https://www.instagram.com/addict_cafe/", "description": "Небольшая светлая кофейня с кофе собственной обжарки. В меню есть пара видов сендвичей, десерты и выпечка.", "tag": "", "city": "Санкт-Петербург", "street": "Малый проспект П.С.", "building_number": " 82", "longitude": 59.965286, "latitude": 30.304522, "comment": "", "station": "Петроградская"}, {"n": 49, "name": "Кому кофе", "image": "https://fenster.coffee/mapImages/107544331_277533376814780_4985136473126493874_n.jpg", "instagram": "https://www.instagram.com/komucoffee/?hl=ru", "description": "Маленькая кофейня, в которой всё очень-очень крафтовое. Кофе собственной обжарки, кстати!", "tag": "", "city": "Санкт-Петербург", "street": "просп. Елизарова", "building_number": " 8, корп. 1", "longitude": 59.897158, "latitude": 30.426594, "comment": "", "station": "Елизаровская"}, {"n": 50, "name": "Coffee Miru", "image": "https://fenster.coffee/miru.png", "instagram": "https://www.instagram.com/coffee_miru", "description": "Небольшая светлая кофейня во Флигеле. Основана она ещё на самой заре спешалти-культуры в Петербурге и работает до сих пор. ", "tag": "", "city": "Санкт-Петербург", "street": "Восстания", "building_number": " 24", "longitude": 59.938209, "latitude": 30.359337, "comment": "", "station": "Чернышевская"}, {"n": 51, "name": "Espresso tonic", "image": "https://fenster.coffee/mapImages/2DDE6DDE-F137-4FBC-9153-B3ACD826F478.jpeg", "instagram": "https://www.instagram.com/espresso_tonic_spb/", "description": "Кофейня, рождённая в баре Джин-тоник. Крутой кофе и еда, большой стеллаж с зерном от разных обжарщиков, которое можно купить себе домой.", "tag": "2–место GoodCoffeeAwards 2019", "city": "Санкт-Петербург", "street": "Социалистическая", "building_number": " 15", "longitude": 59.921836, "latitude": 30.343509, "comment": "", "station": "Звенигородская"}, {"n": 52, "name": "KGallery Book Cafe", "image": "https://fenster.coffee/mapImages/74862750_461063114806147_5079420564602640764_n.jpg", "instagram": "https://www.instagram.com/kgallerybookcafe/", "description": "Маленькая кофейня с панорамным видом на Фонтанку в частной галерее.", "tag": "3–место GoodCoffeeAwards 2019", "city": "Санкт-Петербург", "street": "набережная реки Фонтанки", "building_number": " 24", "longitude": 59.939698, "latitude": 30.342235, "comment": "", "station": "Гостиный Двор"}, {"n": 53, "name": "SWAN", "image": "https://fenster.coffee/mapImages/66477895_506148110135091_5231768260177346943_n.jpg", "instagram": "https://www.instagram.com/swancoffeespb/", "description": "Красиво, много зеркал и есть выбор зерна в эспрессо.", "tag": "3–место Good Coffee Awards 2019", "city": "Санкт-Петербург", "street": "Лизы Чайкиной", "building_number": " 4/12", "longitude": 59.956232, "latitude": 30.298809, "comment": "", "station": "Чкаловская"}, {"n": 54, "name": "Mad Espresso Team", "image": "https://instagram.fhel5-1.fna.fbcdn.net/v/t51.2885-15/e35/79600046_166338584432116_3626985488180217568_n.jpg?_nc_ht=instagram.fhel5-1.fna.fbcdn.net&_nc_cat=104&_nc_ohc=Bp1b0JxQFrMAX_znVHQ&oh=abcbf7bad5258b84a46f7fc770ec9a40&oe=5EA351A7", "instagram": "https://www.instagram.com/madespressoteam/", "description": "Небольшая кофейня на Василеостровском рынке.", "tag": "", "city": "Санкт-Петербург", "street": "Большой просп. Васильевского острова", "building_number": " 16/14Б", "longitude": 59.939408, "latitude": 30.285737, "comment": "", "station": "Василеостровская"}, {"n": 55, "name": "Sibaristica", "comment": "этаж 1", "image": "https://fenster.coffee/mapImages/39134853_2063527713963301_555966998022979584_n.jpg", "instagram": "https://www.instagram.com/sibaristica/", "description": "Кофейня, производство, офис и школа кофе в одном гигантском лофте.", "tag": "", "city": "Санкт-Петербург", "street": "наб. Обводного канала", "building_number": " 199-201К", "longitude": 59.910383, "latitude": 30.283935, "station": "Балтийская"}, {"n": 56, "name": "Смена", "image": "https://fenster.coffee/mapImages/28765530_159264078090961_3141946027892801536_n.jpg", "instagram": "https://www.instagram.com/smenacafe/", "description": "Всегда вкусная еда, всегда отличный кофе и забота о каждом госте. Жалко, что нет второй Смены ;(", "tag": "", "city": "Санкт-Петербург", "street": "Басков пер.", "building_number": " 20", "longitude": 59.939561, "latitude": 30.359817, "comment": "", "station": "Чернышевская"}, {"n": 57, "name": "ТЧК", "image": "https://fenster.coffee/mapImages/72212262_561580737927462_8993379989030503034_n.jpg", "instagram": "https://www.instagram.com/coffee.tchk.spb/", "description": "Очень уютная, но очень маленькая кофейня во втором внутреннем дворике на Австриской площади. Кофе тут - один из лучших в городе, собственная выпечка - божественна!", "tag": "", "city": "Санкт-Петербург", "street": "Каменноостровский просп.", "building_number": " 18/11Б", "longitude": 59.959191, "latitude": 30.316397, "comment": "", "station": "Горьковская"}]